[
  {
    "market": "Bangalore",
    "district": "Bangalore",
    "state": "Karnataka",
    "lat": 12.9767936,
    "lng": 77.590082,
    "resolved_address": "Bengaluru, Bangalore North, Bengaluru Urban, Karnataka, India"
  },
  {
    "market": "Hoskote",
    "district": "Bangalore",
    "state": "Karnataka",
    "lat": 13.0318443,
    "lng": 77.7618779,
    "resolved_address": "Sobha Amethyst & Adamus, Off Whitefiled Hoskote Main Road, Kannamangala, Bengaluru, Bangalore East, Bengaluru Urban, Karnataka, 560067, India"
  },
  {
    "market": "Kanakapura",
    "district": "Bangalore",
    "state": "Karnataka",
    "lat": 12.8844172,
    "lng": 77.5527662,
    "resolved_address": "Kanakapura Road, Narayana Nagara, Vasanthapura, Bengaluru South City Corporation, Bengaluru, Bangalore South, Bengaluru Urban, Karnataka, 560062, India"
  },
  {
    "market": "Bellary",
    "district": "Bellary",
    "state": "Karnataka",
    "lat": 15.1622026,
    "lng": 76.8815329,
    "resolved_address": "Bellary Airport, Hosapete Road, Cantonment, Ballari, Bellary taluk, Ballari, Karnataka, 583275, India"
  },
  {
    "market": "Kustagi",
    "district": "Koppal",
    "state": "Karnataka",
    "lat": 15.7571579,
    "lng": 76.190682,
    "resolved_address": "Kushtagi, Kushtagi taluk, Koppal, Karnataka, 583277, India"
  }
]